<?xml version="1.0" encoding="utf-8"?>

<Buildings xmlns:xsi="http://www.w3.org/2001/XMLSchema-instance" xsi:noNamespaceSchemaLocation="buildings.xsd">
    <Building BuildingCode="KOH" BuildingName="King Olympic Hall">
        <Position>
            <Latitude>34.024547</Latitude>
            <Longitude>-118.288</Longitude>
        </Position>
        <Address>
            <StreetNo>1027</StreetNo>
            <StreetName>W 34th St</StreetName>
            <City>Los Angeles</City>
            <State>CA</State>
            <Zip>90007</Zip>
        </Address>
    </Building>
    <Building BuildingCode="CFX" BuildingName="Cromwell Field">
        <Position>
            <Latitude>34.021631</Latitude>
            <Longitude>-118.289</Longitude>
        </Position>
        <Address>
            <StreetNo>1026</StreetNo>
            <StreetName>W 34th St</StreetName>
            <City>Los Angeles</City>
            <State>CA</State>
            <Zip>90089</Zip>
        </Address>
    </Building>
    <Building BuildingCode="JEP" BuildingName="JEP House">
        <Position>
            <Latitude>34.022947</Latitude>
            <Longitude>-118.284</Longitude>
        </Position>
        <Address>
            <StreetNo>801</StreetNo>
            <StreetName>W 34th St</StreetName>
            <City>Los Angeles</City>
            <State>CA</State>
            <Zip>90089</Zip>
        </Address>
    </Building>
    <Building BuildingCode="SHC" BuildingName="Student Health Center">
        <Position>
            <Latitude>34.023303</Latitude>
            <Longitude>-118.285</Longitude>
        </Position>
        <Address>
            <StreetNo>849</StreetNo>
            <StreetName>W 34th St</StreetName>
            <City>Los Angeles</City>
            <State>CA</State>
            <Zip>90089</Zip>
        </Address>
    </Building>
    <Building BuildingCode="LVY" BuildingName="Leavey Library">
        <Position>
            <Latitude>34.021595</Latitude>
            <Longitude>-118.282</Longitude>
        </Position>
        <Address>
            <StreetNo>651</StreetNo>
            <StreetName>W 35th St</StreetName>
            <City>Los Angeles</City>
            <State>CA</State>
            <Zip>90089</Zip>
        </Address>
    </Building>
    <Building BuildingCode="VKC" BuildingName="Von KleinSmid Center">
        <Position>
            <Latitude>34.021649</Latitude>
            <Longitude>-118.284</Longitude>
        </Position>
        <Address>
            <StreetNo>3518</StreetNo>
            <StreetName>Trousdale</StreetName>
            <City>Los Angeles</City>
            <State>CA</State>
            <Zip>90089</Zip>
        </Address>
    </Building>
    <Building BuildingCode="WPH" BuildingName="Waite Phillips Hall">
        <Position>
            <Latitude>34.022289</Latitude>
            <Longitude>-118.284</Longitude>
        </Position>
        <Address>
            <StreetNo>3550</StreetNo>
            <StreetName>Trousdale</StreetName>
            <City>Los Angeles</City>
            <State>CA</State>
            <Zip>90089</Zip>
        </Address>
    </Building>
    <Building BuildingCode="JHH" BuildingName="John Hubbard Hall">
        <Position>
            <Latitude>34.020101</Latitude>
            <Longitude>-118.284</Longitude>
        </Position>
        <Address>
            <StreetNo>615</StreetNo>
            <StreetName>Childs Way</StreetName>
            <City>Los Angeles</City>
            <State>CA</State>
            <Zip>90089</Zip>
        </Address>
    </Building>
    <Building BuildingCode="REG" BuildingName="Registration Building">
        <Position>
            <Latitude>34.019603</Latitude>
            <Longitude>-118.282</Longitude>
        </Position>
        <Address>
            <StreetNo>611</StreetNo>
            <StreetName>Childs Way</StreetName>
            <City>Los Angeles</City>
            <State>CA</State>
            <Zip>90089</Zip>
        </Address>
    </Building>
    <Building BuildingCode="STU" BuildingName="Student Union">
        <Position>
            <Latitude>34.020226</Latitude>
            <Longitude>-118.286</Longitude>
        </Position>
        <Address>
            <StreetNo>3551</StreetNo>
            <StreetName>Trousdale</StreetName>
            <City>Los Angeles</City>
            <State>CA</State>
            <Zip>90089</Zip>
        </Address>
    </Building>
    <Building BuildingCode="BKS" BuildingName="Bookstore">
        <Position>
            <Latitude>34.020635</Latitude>
            <Longitude>-118.286</Longitude>
        </Position>
        <Address>
            <StreetNo>840</StreetNo>
            <StreetName>Childs Way</StreetName>
            <City>Los Angeles</City>
            <State>CA</State>
            <Zip>90089</Zip>
        </Address>
    </Building>
    <Building BuildingCode="RTH" BuildingName="Ronald Tutor Hall">
        <Position>
            <Latitude>34.020137</Latitude>
            <Longitude>-118.29</Longitude>
        </Position>
        <Address>
            <StreetNo>3710</StreetNo>
            <StreetName>McClintock</StreetName>
            <City>Los Angeles</City>
            <State>CA</State>
            <Zip>90089</Zip>
        </Address>
    </Building>
    <Building BuildingCode="SAL" BuildingName="Salvatori Com. Center">
        <Position>
            <Latitude>34.01955</Latitude>
            <Longitude>-118.289</Longitude>
        </Position>
        <Address>
            <StreetNo>941</StreetNo>
            <StreetName>W 37th Place</StreetName>
            <City>Los Angeles</City>
            <State>CA</State>
            <Zip>90089</Zip>
        </Address>
    </Building>
    <Building BuildingCode="EEB" BuildingName="Electrical Engr Center">
        <Position>
            <Latitude>34.019728</Latitude>
            <Longitude>-118.29</Longitude>
        </Position>
        <Address>
            <StreetNo>3715</StreetNo>
            <StreetName>McClintock</StreetName>
            <City>Los Angeles</City>
            <State>CA</State>
            <Zip>90089</Zip>
        </Address>
    </Building>
    <Building BuildingCode="OHE" BuildingName="Olin Hall Engineering">
        <Position>
            <Latitude>34.020493</Latitude>
            <Longitude>-118.29</Longitude>
        </Position>
        <Address>
            <StreetNo>3650</StreetNo>
            <StreetName>McClintock</StreetName>
            <City>Los Angeles</City>
            <State>CA</State>
            <Zip>90089</Zip>
        </Address>
    </Building>
</Buildings>
